{
  "type": "FeatureCollection",
  "features": [
    {
      "type": "Feature",
      "properties": {
        "id": "ulmamrathaus",
        "name": "Am Rathaus",
        "type": "underground",
        "public_url": null,
        "source_url": null,
        "address": "Neue Str. 113",
        "capacity": 558,
        "has_live_capacity": false
      },
      "geometry": {
        "type": "Point",
        "coordinates": [
          9.993047,
          48.397305
        ]
      }
    },
    {
      "type": "Feature",
      "properties": {
        "id": "ulmcongresscentrumnordbasteicenter",
        "name": "Congress Centrum Nord / Basteicenter",
        "type": "underground",
        "public_url": null,
        "source_url": null,
        "address": "Wichernstraße",
        "capacity": 420,
        "has_live_capacity": false
      },
      "geometry": {
        "type": "Point",
        "coordinates": [
          10.001591,
          48.401814
        ]
      }
    },
    {
      "type": "Feature",
      "properties": {
        "id": "ulmcongresscentrumsuedmaritimhotel",
        "name": "Congress Centrum Süd / Maritim Hotel",
        "type": "underground",
        "public_url": null,
        "source_url": null,
        "address": "Basteistraße 46",
        "capacity": 235,
        "has_live_capacity": false
      },
      "geometry": {
        "type": "Point",
        "coordinates": [
          10.004385,
          48.401223
        ]
      }
    },
    {
      "type": "Feature",
      "properties": {
        "id": "ulmdeutschhaus",
        "name": "Deutschhaus",
        "type": "garage",
        "public_url": null,
        "source_url": null,
        "address": "Friedrich-Ebert-Straße 8",
        "capacity": 594,
        "has_live_capacity": false
      },
      "geometry": {
        "type": "Point",
        "coordinates": [
          9.984545,
          48.397917
        ]
      }
    },
    {
      "type": "Feature",
      "properties": {
        "id": "ulmfischerviertel",
        "name": "Fischerviertel",
        "type": "underground",
        "public_url": null,
        "source_url": null,
        "address": "Schwilmengasse",
        "capacity": 395,
        "has_live_capacity": false
      },
      "geometry": {
        "type": "Point",
        "coordinates": [
          9.988355,
          48.396583
        ]
      }
    },
    {
      "type": "Feature",
      "properties": {
        "id": "ulmfrauenstrasse",
        "name": "Frauenstraße",
        "type": "underground",
        "public_url": null,
        "source_url": null,
        "address": "Rosengasse 19",
        "capacity": 770,
        "has_live_capacity": false
      },
      "geometry": {
        "type": "Point",
        "coordinates": [
          9.996022,
          48.400979
        ]
      }
    },
    {
      "type": "Feature",
      "properties": {
        "id": "ulmkornhaus",
        "name": "Kornhaus",
        "type": "underground",
        "public_url": null,
        "source_url": null,
        "address": "Rosengasse 9",
        "capacity": 135,
        "has_live_capacity": false
      },
      "geometry": {
        "type": "Point",
        "coordinates": [
          9.99491,
          48.40093
        ]
      }
    },
    {
      "type": "Feature",
      "properties": {
        "id": "ulmsalzstadel",
        "name": "Salzstadel",
        "type": "underground",
        "public_url": null,
        "source_url": null,
        "address": "Salzstadelgasse 14",
        "capacity": 530,
        "has_live_capacity": false
      },
      "geometry": {
        "type": "Point",
        "coordinates": [
          9.990002,
          48.40116
        ]
      }
    },
    {
      "type": "Feature",
      "properties": {
        "id": "ulmtheater",
        "name": "Theater",
        "type": "underground",
        "public_url": null,
        "source_url": null,
        "address": "Olgastraße 63",
        "capacity": 83,
        "has_live_capacity": false
      },
      "geometry": {
        "type": "Point",
        "coordinates": [
          9.98559,
          48.40062
        ]
      }
    }
  ]
}